  [{"id":2,"catalogIds":",2,","name":"烟感器平台","shortName":"平台","type":0,"status":1,"createTime":"2018-09-04","parentId":null,"addressId":1,"districtCode":"330106","townCode":null,"address":"文一西路522号","gpsLat":30.29293,"gpsLng":120.096923,"ctrlAreaCode":"","children":[],"text":"烟感器平台","_parentId":null},
  {"id":3,"catalogIds":",2,,3,","name":"烟感器代理商1","shortName":"代理商1","type":1,"status":1,"createTime":"2018-06-05","creatorId":null,"creatorName":null,"parentId":2,"paraentName":"烟感器平台","contactId":null,"addressId":1,"districtCode":"330305","townCode":null,"address":"文一西路522号","gpsLat":30.29293,"gpsLng":120.096923,"ctrlAreaCode":null,"children":[],"text":"烟感器代理商1","_parentId":2},
  {"id":4,"catalogIds":",2,,3,,5,,4,","name":"烟感器用户单位1","shortName":"用户单位1","status":1,"createTime":"2018-08-21","creatorId":2,"creatorName":"烟感器实验","parentId":5,"paraentName":"二级代理","contactId":null,"tel":null,"mobile":"","email":null,"qq":null,"wechat":null,"wechatMp":null,"wangwang":null,"webo":null,"addressId":32,"districtCode":"330106","townCode":null,"address":"浙江科技学院","gpsLat":30.227846,"gpsLng":120.033056,"ctrlAreaCode":"","children":[],"text":"烟感器用户单位1","_parentId":5},
  {"id":5,"catalogIds":",2,,3,,5,","name":"二级代理","shortName":"二级代理","financeAcountId":null,"type":1,"status":1,"createTime":"2018-06-07","creatorId":null,"creatorName":null,"parentId":3,"paraentName":"烟感器代理商1","contactId":null,"tel":null,"mobile":null,"email":null,"qq":null,"wechat":null,"wechatMp":null,"wangwang":null,"webo":null,"addressId":1,"districtCode":"330305","townCode":null,"address":"文一西路522号","gpsLat":30.29293,"gpsLng":120.096923,"ctrlAreaCode":null,"children":[],"text":"二级代理","_parentId":3},
  {"id":6,"catalogIds":",2,,3,,5,,6,","name":"烟感测试用户2","shortName":"用户单位2","financeAcountId":null,"type":3,"status":1,"createTime":"2018-06-08","creatorId":null,"creatorName":null,"parentId":5,"paraentName":"二级代理","contactId":null,"tel":null,"addressId":1,"districtCode":"330106","townCode":null,"address":"文一西路522号","gpsLat":30.29293,"gpsLng":120.096923,"ctrlAreaCode":null,"children":[],"text":"烟感测试用户2","_parentId":5},
  {"id":11,"catalogIds":",2,,3,,11,","name":"浙江总代理","shortName":"浙江总代理","financeAcountId":null,"type":1,"status":1,"createTime":"2018-06-08","creatorId":4,"creatorName":"烟感器代理商1","parentId":3,"paraentName":"烟感器代理商1","contactId":null,"tel":null,"mobile":null,"email":null,"qq":null,"wechat":null,"wechatMp":null,"wangwang":null,"webo":null,"addressId":11,"districtCode":"330103","townCode":null,"address":"","gpsLat":30.25116,"gpsLng":120.173146,"ctrlAreaCode":"","children":[],"text":"浙江总代理","_parentId":3},
  {"id":13,"catalogIds":",2,,3,,11,,13,","name":"杭州市代理","shortName":"杭州市代理","financeAcountId":null,"type":1,"status":1,"createTime":"2018-06-13","creatorId":4,"creatorName":"烟感器代理商1","parentId":11,"paraentName":"浙江总代理","contactId":null,"tel":null,"mobile":null,"email":null,"qq":null,"wechat":null,"wechatMp":null,"wangwang":null,"webo":null,"addressId":13,"districtCode":"330106","townCode":null,"address":null,"gpsLat":30.279359,"gpsLng":120.131822,"ctrlAreaCode":null,"children":[],"text":"杭州市代理","_parentId":11},
  {"id":16,"catalogIds":",2,,16,","name":"设备提供商1","shortName":"设备提供商--测试","financeAcountId":null,"type":5,"status":1,"createTime":"2018-08-16","creatorId":2,"creatorName":"烟感器实验","parentId":2,"paraentName":"烟感器平台","contactId":null,"tel":null,"mobile":null,"email":null,"qq":null,"wechat":null,"wechatMp":null,"wangwang":null,"webo":null,"addressId":18,"districtCode":"330106","townCode":"330106009","address":"浙江科技学院 西和公寓","gpsLat":30.220523,"gpsLng":120.026114,"ctrlAreaCode":null,"children":[],"text":"设备提供商1","_parentId":2},
  {"id":17,"catalogIds":",17,","name":"政府部门","shortName":"政府部门","financeAcountId":null,"type":6,"status":1,"createTime":"2018-08-17","creatorId":2,"creatorName":"烟感器实验","parentId":null,"paraentName":null,"contactId":null,"tel":null,"mobile":null,"email":null,"qq":null,"wechat":null,"wechatMp":null,"wangwang":null,"webo":null,"addressId":20,"districtCode":"110102","townCode":"110102001","address":"中华人民共和国国务院","gpsLat":39.919126,"gpsLng":116.380681,"ctrlAreaCode":null,"children":[],"text":"政府部门","_parentId":null},
  {"id":18,"catalogIds":",17,,18,","name":"浙江省","shortName":"浙江省","financeAcountId":null,"type":6,"status":1,"createTime":"2018-08-17","creatorId":2,"creatorName":"烟感器实验","parentId":17,"paraentName":"政府部门","contactId":null,"tel":null,"mobile":null,"email":null,"qq":null,"wechat":null,"wechatMp":null,"wangwang":null,"webo":null,"addressId":25,"districtCode":"330106","townCode":null,"address":"浙江省人民政府","gpsLat":30.273388,"gpsLng":120.159455,"ctrlAreaCode":"330000","children":[],"text":"浙江省","_parentId":17},{"id":20,"catalogIds":",17,,20,","name":"海南省","shortName":"海南省","financeAcountId":null,"type":6,"status":1,"createTime":"2018-08-21","creatorId":2,"creatorName":"烟感器实验","parentId":17,"paraentName":"政府部门","contactId":null,"wangwang":null,"webo":null,"addressId":33,"districtCode":"460108","townCode":null,"address":"海南省人民政府","gpsLat":20.024094,"gpsLng":110.355236,"ctrlAreaCode":"460000","children":[],"text":"海南省","_parentId":17},
  {"id":21,"catalogIds":",2,,21,","name":"灵隐寺","shortName":"灵隐寺","financeAcountId":null,"type":3,"status":1,"createTime":"2018-08-23","creatorId":2,"creatorName":"烟感器实验","parentId":2,"paraentName":"烟感器平台","contactId":null,"tel":null,"mobile":null,"email":null,"qq":null,"wechat":null,"wechatMp":null,"wangwang":null,"webo":null,"addressId":34,"districtCode":"330106","townCode":"330106012","address":"灵隐寺","gpsLat":30.247256,"gpsLng":120.110681,"ctrlAreaCode":"330106","children":[],"text":"灵隐寺","_parentId":2},{"id":22,"catalogIds":",2,,22,","name":"立昂技术","shortName":"立昂技术","financeAcountId":null,"type":3,"status":1,"createTime":"2018-09-04","creatorId":2,"creatorName":"烟感器实验","parentId":2,"paraentName":"烟感器平台","contactId":null,"wangwang":null,"webo":null,"addressId":39,"districtCode":"650106","townCode":null,"address":"燕山街518号","gpsLat":43.85152,"gpsLng":87.512104,"ctrlAreaCode":"650106","children":[],"text":"立昂技术","_parentId":2},
  {"id":23,"catalogIds":",17,,18,,23,","name":"温州市骏图物联网","shortName":"平阳代理","financeAcountId":null,"type":1,"status":1,"createTime":"2018-09-11","creatorId":2,"creatorName":"烟感器实验","parentId":18,"paraentName":"浙江省","contactId":null,"tel":null,"mobile":null,"email":null,"qq":null,"wechat":null,"wechatMp":null,"wangwang":null,"webo":null,"addressId":44,"districtCode":"330326","townCode":"330326102","address":"","gpsLat":27.6358,"gpsLng":120.336275,"ctrlAreaCode":"330326","children":[],"text":"温州市骏图物联网","_parentId":18},{"id":24,"catalogIds":",2,,24,","name":"烟感测试","shortName":"烟感测试","financeAcountId":null,"type":3,"status":1,"createTime":"2018-10-31","creatorId":2,"creatorName":"烟感器实验","parentId":2,"paraentName":"烟感器平台","contactId":null,"tel":null,"mobile":null,"email":null,"qq":null,"wechat":null,"wechatMp":null,"wangwang":null,"webo":null,"addressId":49,"districtCode":"330106","townCode":"330106011","address":"西溪科创园9-101","gpsLat":30.294632,"gpsLng":120.095908,"ctrlAreaCode":null,"children":[],"text":"烟感测试","_parentId":2}]
  